[
  {
    "name": "Brâncuși Lăcrimioarelor",
    "lat": 46.759694,
    "long": 23.615190,
    "address": "Strada Constantin Brâncuși 153",
    "notes": "",
    "img": "assets/location-images/brancusi.png"
  },
  {
    "name": "Liviu Rebreanu",
    "lat": 46.765359,
    "long": 23.620042,
    "address": "Strada Liviu Rebreanu 46",
    "notes": "Dau si la sfert",
    "img":"assets/location-images/rebreanu.jpg"
  },
  {
    "name": "Bună Ziua",
    "lat": 46.750381,
    "long": 23.606910,
    "address": "Aleea Gogu Constantinescu",
    "notes": ""
  },
  {
    "name": "Bună Ziua Bonjour",
    "lat": 46.749089,
    "long": 23.601361,
    "notes": ""
  },
  {
    "name": "Spate Interservisan",
    "lat": 46.769329,
    "long": 23.617596,
    "address": "Strada Bistriței 87",
    "notes": "",
    "img": "assets/location-images/bistritei.jpg"
  },
  {
    "name": "Albini",
    "lat": 46.762493,
    "long": 23.613473,
    "address": "Strada Septimiu Albini 124",
    "notes": "",
    "img": "assets/location-images/albini.jpg"
  }
]