[
  {
    "name": "Brâncuși Lăcrimioarelor",
    "lat": 46.759694,
    "long": 23.615190,
    "address": "Strada Constantin Brâncuși 153",
    "img": "assets/location-images/brancusi.png"
  },
  {
    "name": "Liviu Rebreanu",
    "lat": 46.765359,
    "long": 23.620042,
    "address": "Strada Liviu Rebreanu 46",
    "notes": "Dau si la sfert",
    "img":"assets/location-images/rebreanu.jpg"
  },
  {
    "name": "Bună Ziua",
    "lat": 46.750381,
    "long": 23.606910,
    "address": "Aleea Gogu Constantinescu"
  },
  {
    "name": "Bună Ziua Bonjour",
    "address": "Strada Bună Ziua 41a",
    "lat": 46.749089,
    "long": 23.601361,
    "img": "assets/location-images/bonjour.png"
  },
  {
    "name": "Spate Interservisan",
    "lat": 46.769329,
    "long": 23.617596,
    "address": "Strada Bistriței 87",
    "img": "assets/location-images/bistritei.jpg"
  },
  {
    "name": "Albini",
    "lat": 46.762493,
    "long": 23.613473,
    "address": "Strada Septimiu Albini 124",
    "img": "assets/location-images/albini.jpg"
  },
  {
    "name": "Fântânele 12",
    "lat": 46.768884,
    "long": 23.553456,
    "address": "Strada Fântânele 12",
    "img": "assets/location-images/fantanele.png"
  },
  {
    "name": "Donath",
    "lat": 46.77060990494447,
    "long": 23.551634094473823,
    "address": "Str. Donath 51",
    "notes": "Lângă Oncos",
    "img": "assets/location-images/donath.png"
  }, 
  {
    "name": "Miraslău",
    "lat": 46.766033,
    "long": 23.550203,
    "address": "Parcare Strada Miraslău",
    "img":"assets/location-images/profi.png"
  },
  {
    "name": "Lunii",
    "lat": 46.75195989147706, 
    "long": 23.577410301715275,
    "address": "Strada Observatorului 129"
  },
  {
    "name": "Complex Mercur",
    "lat": 46.76738197528518,
    "long": 23.624552232693016,
    "address": "Aleea Detunata 1"
  },
  {
    "name": "Iris",
    "lat": 46.79260086549386,
    "long": 23.604067004004595,
    "address": "Strada Iris, intersecție Oașului"
  },
  {
    "name": "Nădășel",
    "lat": 46.79115234499329,
    "long": 23.605695207317318,
    "address": "Strada Nădășel 40"
  },
  {
    "name": "Iris",
    "lat": 46.793039466682664,
    "long": 23.605138087030515,
    "address": "Strada Iris"
  },
  {
    "name": "Oașului",
    "lat": 46.79570693506164,
    "long": 23.60287282217371,
    "address": "400268, Strada Oașului 90"
  },
  {
    "name": "Arieșului",
    "lat": 46.764302061168976,
    "long": 23.614099360225048,
    "address": "Strada Arieșului 103",
    "img": "assets/location-images/ariesului.png",
    "notes": "Au și roșii, ardei"
  },
  {
    "name": "Dunării",
    "lat": 46.777160,
    "long": 23.633172,
    "address": "Strada Dunării 51",
    "notes": "Gustoși si dulci"
  },
  {
    "name": "Observatorului Recuperare",
    "lat": 46.754265392778656,
    "long": 23.58444464394575,
    "address": "Strada Observatorului 109",
    "img": "assets/location-images/obs.png",
    "notes": "Se poate plati cu BTpay"
  },
  {
    "name": "Observatorului Profi",
    "lat": 46.75361452492452,
    "long": 23.581728281019938,
    "img": "assets/location-images/obs-profi.png"
  }
]